City_ID,City,Lat,Lng,Max Temp,Humidity,Cloudiness,Wind Speed,Country,Date
0,tazovsky,67.4667,78.7,-6.44,86,100,9.02,RU,2024-11-26
1,labytnangi,66.6572,66.4183,-5.42,90,100,10.14,RU,2024-11-26
2,wailua homesteads,22.0669,-159.378,25.44,74,0,7.72,US,2024-11-26
3,vilyuysk,63.7553,121.6247,-20.06,91,100,3.65,RU,2024-11-26
4,port-aux-francais,-49.35,70.2167,3.24,77,56,15.64,TF,2024-11-26
5,albany,42.6001,-73.9662,1.34,80,100,0.99,US,2024-11-26
6,ribeira grande,38.5167,-28.7,19.87,92,17,5.81,PT,2024-11-26
7,west island,-12.1568,96.8225,26.99,94,75,9.77,CC,2024-11-26
8,grytviken,-54.2811,-36.5092,0.52,72,99,2.79,GS,2024-11-26
9,new norfolk,-42.7826,147.0587,22.62,32,6,2.65,AU,2024-11-26
10,sitka,57.0531,-135.33,3.94,70,100,2.57,US,2024-11-26
11,bonthe,7.5264,-12.505,25.92,81,19,2.27,SL,2024-11-26
12,iqaluit,63.7506,-68.5145,-12.15,72,100,2.57,CA,2024-11-26
13,walvis bay,-22.9575,14.5053,14.11,93,76,4.34,NA,2024-11-26
14,egilsstadir,65.2653,-14.3948,-8.05,57,0,3.6,IS,2024-11-26
15,fastiv,50.0767,29.9177,-4.24,84,8,2.61,UA,2024-11-26
16,watsa,3.0372,29.5355,17.12,98,100,1.39,CD,2024-11-26
17,juan griego,11.0817,-63.9655,21.07,100,8,4.63,VE,2024-11-26
18,yellowknife,62.456,-114.3525,-5.88,93,100,6.71,CA,2024-11-26
19,waitangi,-43.9535,-176.5597,14.9,92,44,3.58,NZ,2024-11-26
20,vorgashor,67.5833,63.95,-4.19,94,100,12.14,RU,2024-11-26
21,kannur,11.8675,75.3576,24.1,69,100,2.01,IN,2024-11-26
22,port mathurin,-19.6833,63.4167,24.63,73,7,7.53,MU,2024-11-26
23,juan rodriguez clara,17.9833,-95.4083,19.66,84,8,1.36,MX,2024-11-26
24,sinabang,2.4803,96.3801,24.78,95,100,0.81,ID,2024-11-26
25,georgetown,5.4112,100.3354,29.97,77,40,2.24,MY,2024-11-26
26,bargaal,11.2864,51.0773,25.21,71,2,2.18,SO,2024-11-26
27,punta arenas,-53.15,-70.9167,10.06,66,20,4.12,CL,2024-11-26
28,aasiaat,68.7098,-52.8699,-5.29,71,100,6.98,GL,2024-11-26
29,hamilton,39.1834,-84.5333,13.68,92,100,11.62,US,2024-11-26
30,klaksvik,62.2266,-6.589,3.73,65,100,12.23,FO,2024-11-26
31,udachny,66.4167,112.4,-21.28,98,100,3.09,RU,2024-11-26
32,nar'yan-mar,67.6713,53.087,1.31,93,100,13.04,RU,2024-11-26
33,mirny,62.5353,113.9611,-19.1,96,100,5.17,RU,2024-11-26
34,lata,40.1629,-8.3327,9.02,83,100,1.24,PT,2024-11-26
35,crucecita,-28.95,-58.9833,22.32,94,24,4.69,AR,2024-11-26
36,hawaiian paradise park,19.5933,-154.9731,25.73,82,100,4.12,US,2024-11-26
37,mogadishu,2.0371,45.3438,26.75,84,23,5.24,SO,2024-11-26
38,bethel,41.3712,-73.414,5.74,72,99,0.58,US,2024-11-26
39,adamstown,-25.066,-130.1015,22.56,77,20,8.18,PN,2024-11-26
40,tambura,5.6,27.4667,20.48,54,16,1.12,SS,2024-11-26
41,alofi,-19.0595,-169.9187,26.94,83,40,5.14,NU,2024-11-26
42,edinburgh of the seven seas,-37.0676,-12.3116,13.41,75,100,7.4,SH,2024-11-26
43,iwanai,42.9744,140.5089,7.81,56,65,3.25,JP,2024-11-26
44,bryne,58.7354,5.6477,9.41,81,75,10.29,NO,2024-11-26
45,nizhnyaya omka,55.4338,74.9426,-13.04,83,73,1.53,RU,2024-11-26
46,sastobe,42.55,70.0,9.79,33,90,2.54,KZ,2024-11-26
47,port elizabeth,-33.918,25.5701,18.16,92,0,6.17,ZA,2024-11-26
48,aswan,24.0934,32.907,11.61,58,0,2.57,EG,2024-11-26
49,reggane,26.7158,0.1714,18.82,38,23,5.32,DZ,2024-11-26
50,al ahmadi,29.0769,48.0839,22.47,71,54,4.34,KW,2024-11-26
51,puerto natales,-51.7236,-72.4875,7.57,85,6,1.11,CL,2024-11-26
52,college,64.8569,-147.8028,-4.35,85,75,1.54,US,2024-11-26
53,bredasdorp,-34.5322,20.0403,15.15,56,96,7.36,ZA,2024-11-26
54,homer,59.6425,-151.5483,3.78,77,20,4.92,US,2024-11-26
55,flying fish cove,-10.4217,105.6791,28.07,75,47,1.98,CX,2024-11-26
56,tiksi,71.6872,128.8694,-18.51,78,100,11.6,RU,2024-11-26
57,thompson,55.7435,-97.8558,-11.91,85,100,5.66,CA,2024-11-26
58,jamestown,42.097,-79.2353,8.9,90,100,3.09,US,2024-11-26
59,hotan,37.0997,79.9269,3.54,29,96,2.24,CN,2024-11-26
60,olonkinbyen,70.9221,-8.7187,-2.77,75,100,5.68,SJ,2024-11-26
61,bulgan,48.8125,103.5347,-8.92,62,98,2.61,MN,2024-11-26
62,colonia,50.9333,6.95,9.42,84,0,2.57,DE,2024-11-26
63,ilulissat,69.2167,-51.1,-3.99,68,75,5.66,GL,2024-11-26
64,daru,-9.0763,143.2092,28.02,84,48,5.76,PG,2024-11-26
65,krong kep,10.4833,104.3167,26.17,74,89,6.47,KH,2024-11-26
66,whitehorse,60.7161,-135.0538,-12.57,85,100,0.0,CA,2024-11-26
67,margaret river,-33.95,115.0667,16.98,47,8,7.09,AU,2024-11-26
68,nikolayevsk-on-amure,53.1406,140.73,-4.74,67,86,0.9,RU,2024-11-26
69,chibougamau,49.9168,-74.3659,-3.21,100,100,0.0,CA,2024-11-26
70,sampit,-2.5333,112.95,32.25,58,100,1.3,ID,2024-11-26
71,pangody,65.85,74.4859,-6.34,85,100,10.06,RU,2024-11-26
72,blackmans bay,-43.0167,147.3167,21.96,70,63,0.45,AU,2024-11-26
73,piacabucu,-10.4056,-36.4344,24.79,87,100,2.05,BR,2024-11-26
74,youghal,51.95,-7.8506,3.64,95,7,2.95,IE,2024-11-26
75,mount gambier,-37.8333,140.7667,25.16,66,100,1.25,AU,2024-11-26
76,sarina,-21.4333,149.2167,30.7,17,43,4.56,AU,2024-11-26
77,yeppoon,-23.1333,150.7333,26.36,67,18,6.7,AU,2024-11-26
78,qaqortoq,60.7167,-46.0333,-11.55,76,0,1.59,GL,2024-11-26
79,ambon,-3.6954,128.1814,32.08,70,40,2.57,ID,2024-11-26
80,namibe,-15.1961,12.1522,20.14,79,70,2.97,AO,2024-11-26
81,la grande,45.3246,-118.0877,2.94,83,100,3.19,US,2024-11-26
82,invercargill,-46.4,168.35,16.12,71,45,8.05,NZ,2024-11-26
83,richards bay,-28.783,32.0377,23.43,83,15,5.94,ZA,2024-11-26
84,anadyr,64.75,177.4833,-14.72,85,100,3.0,RU,2024-11-26
85,port-gentil,-0.7193,8.7815,26.03,81,100,4.75,GA,2024-11-26
86,nola,40.922,14.5329,14.25,83,94,0.65,IT,2024-11-26
87,jhajjar,28.6063,76.6565,17.92,34,0,1.45,IN,2024-11-26
88,port lincoln,-34.7333,135.8667,21.84,68,100,3.77,AU,2024-11-26
89,usinsk,65.9939,57.5281,-2.23,92,100,14.25,RU,2024-11-26
90,howard springs,-12.497,131.047,24.95,56,100,1.86,AU,2024-11-26
91,praia da vitoria,38.7333,-27.0667,14.14,100,20,2.39,PT,2024-11-26
92,petrolina,-9.3986,-40.5008,24.03,88,0,5.14,BR,2024-11-26
93,atafu village,-8.5421,-172.5159,28.81,75,6,7.43,TK,2024-11-26
94,alice springs,-23.7,133.8833,29.75,48,10,6.17,AU,2024-11-26
95,brookings,44.3114,-96.7984,-7.75,82,0,2.06,US,2024-11-26
96,gadzhiyevo,69.2551,33.3362,-5.15,88,99,3.21,RU,2024-11-26
97,guerrero negro,27.9769,-114.0611,17.38,80,100,3.41,MX,2024-11-26
98,pimentel,-6.8367,-79.9342,20.16,83,20,7.2,PE,2024-11-26
99,luanda,-8.8368,13.2343,26.0,83,20,2.06,AO,2024-11-26
100,metlili chaamba,32.2667,3.6333,11.52,71,0,0.0,DZ,2024-11-26
101,st. john's,47.5649,-52.7093,5.15,96,100,3.6,CA,2024-11-26
102,downpatrick,54.3263,-5.7035,5.35,80,100,4.87,GB,2024-11-26
103,ushuaia,-54.8,-68.3,8.81,61,20,9.26,AR,2024-11-26
104,weston,26.1004,-80.3998,21.01,82,0,0.45,US,2024-11-26
105,loukhi,66.0764,33.0381,3.38,100,100,4.17,RU,2024-11-26
106,haiku-pauwela,20.9219,-156.3051,25.68,77,6,3.13,US,2024-11-26
107,country club estates,31.2127,-81.4643,13.03,94,0,0.0,US,2024-11-26
108,mersa matruh,31.3525,27.2453,15.11,58,75,8.75,EG,2024-11-26
109,lompoc,34.6391,-120.4579,14.45,85,100,10.29,US,2024-11-26
110,east london,-33.0153,27.9116,19.77,76,100,6.54,ZA,2024-11-26
111,asaita,11.5636,41.4394,23.24,71,0,2.58,ET,2024-11-26
112,mishkovo-pohorilove,46.9995,32.118,-2.15,67,50,3.26,UA,2024-11-26
113,indramayu,-6.3264,108.32,29.97,66,60,2.08,ID,2024-11-26
114,susuman,62.7833,148.1667,-32.96,95,9,0.39,RU,2024-11-26
115,carnarvon,-24.8667,113.6333,25.6,47,0,9.11,AU,2024-11-26
116,broken hill,-31.95,141.4333,32.97,29,66,8.54,AU,2024-11-26
117,barguzin,53.6167,109.6167,-16.81,84,67,0.51,RU,2024-11-26
118,plettenberg bay,-34.0527,23.3716,16.37,85,100,4.8,ZA,2024-11-26
119,waingapu,-9.6567,120.2641,31.59,61,99,4.04,ID,2024-11-26
120,palikir - national government center,6.9248,158.1611,30.41,70,100,2.57,FM,2024-11-26
121,ust-nera,64.5667,143.2,-30.33,99,65,1.73,RU,2024-11-26
122,akko,32.9236,35.0728,10.6,86,90,6.73,IL,2024-11-26
123,corinto,37.9407,22.9573,7.16,72,0,0.09,GR,2024-11-26
124,talnakh,69.4865,88.3972,-4.71,94,100,5.14,RU,2024-11-26
125,lihue,21.9789,-159.3672,25.77,70,0,7.72,US,2024-11-26
126,cochrane,51.1834,-114.4687,-13.65,85,100,1.03,CA,2024-11-26
127,fisterra,42.9049,-9.2629,15.22,71,100,7.54,ES,2024-11-26
128,luang prabang,19.8856,102.1347,22.98,78,20,2.06,LA,2024-11-26
129,northam,51.0333,-4.2167,7.01,91,83,5.46,GB,2024-11-26
130,zaozersk,69.4005,32.4476,-5.01,86,98,2.76,RU,2024-11-26
131,cozumel,20.5083,-86.9458,23.86,88,0,4.51,MX,2024-11-26
132,bantay,17.5847,120.3892,30.54,94,58,2.62,PH,2024-11-26
133,puerto ayora,-0.7393,-90.3518,22.53,85,31,1.34,EC,2024-11-26
134,buka,40.8108,69.1986,8.52,31,99,1.11,UZ,2024-11-26
135,xilin hot,43.9667,116.0333,-12.08,45,94,7.23,CN,2024-11-26
136,petropavlovsk-kamchatsky,53.0452,158.6483,2.33,48,75,5.0,RU,2024-11-26
137,chikitigarh,19.2,84.6167,21.59,61,99,2.31,IN,2024-11-26
138,zvezdnyy,57.7325,56.3147,-8.67,88,7,1.65,RU,2024-11-26
139,havre,49.5833,0.3333,8.87,87,20,5.14,FR,2024-11-26
140,saipan,15.1355,145.701,29.8,80,75,7.72,MP,2024-11-26
141,acapulco de juarez,16.8634,-99.8901,23.57,84,22,1.73,MX,2024-11-26
142,fort bragg,35.139,-79.006,13.22,78,14,3.77,US,2024-11-26
143,arafat,39.0344,44.6198,1.22,88,35,2.5,IR,2024-11-26
144,hasaki,35.7333,140.8333,15.47,55,100,2.74,JP,2024-11-26
145,prieska,-29.6641,22.7474,16.68,42,98,3.68,ZA,2024-11-26
146,stanley,54.868,-1.6985,4.01,84,20,6.69,GB,2024-11-26
147,gulf shores,30.246,-87.7008,21.11,67,5,3.78,US,2024-11-26
148,sanctuary point,-35.1114,150.629,27.48,58,100,5.3,AU,2024-11-26
149,kodiak,57.79,-152.4072,-1.27,80,0,1.54,US,2024-11-26
150,horta,38.5333,-28.6333,19.45,92,35,5.81,PT,2024-11-26
151,laguna,38.421,-121.4238,15.12,82,100,3.13,US,2024-11-26
152,morropon,-5.1822,-79.9689,23.11,70,83,2.48,PE,2024-11-26
153,ribeira brava,32.65,-17.0667,20.4,81,98,0.97,PT,2024-11-26
154,san patricio,28.017,-97.5169,23.97,76,2,1.98,US,2024-11-26
155,mejit,10.2753,170.8646,28.26,81,66,9.23,MH,2024-11-26
156,kalmunai,7.4167,81.8167,24.15,92,100,5.02,LK,2024-11-26
157,ciudad lazaro cardenas,17.9583,-102.2,25.16,78,0,1.56,MX,2024-11-26
158,colares,38.7992,-9.4469,14.63,80,100,2.0,PT,2024-11-26
159,tofol,5.3248,163.0078,31.88,66,75,4.12,FM,2024-11-26
160,kapuskasing,49.4169,-82.4331,-0.95,100,100,3.09,CA,2024-11-26
161,tadine,-21.55,167.8833,23.92,90,100,7.76,NC,2024-11-26
162,ilhabela,-23.7781,-45.3581,20.76,89,73,3.84,BR,2024-11-26
163,bilibino,68.0546,166.4372,-34.01,98,11,1.46,RU,2024-11-26
164,varzea grande,-15.6467,-56.1325,26.93,78,0,5.66,BR,2024-11-26
165,neiafu,-18.65,-173.9833,27.38,83,75,4.63,TO,2024-11-26
166,lebu,-37.6167,-73.65,11.28,85,0,0.9,CL,2024-11-26
167,taro,-8.3862,115.28,26.77,75,100,1.03,ID,2024-11-26
168,nova sintra,14.8667,-24.7167,25.35,75,3,8.07,CV,2024-11-26
169,vadso,70.0744,29.7487,-1.91,80,20,4.12,NO,2024-11-26
170,masjed soleyman,31.9364,49.3039,20.86,58,100,2.22,IR,2024-11-26
171,lesogorsk,56.0458,99.5136,-5.14,85,98,4.72,RU,2024-11-26
172,fale old settlement,-9.3852,-171.2468,28.85,74,9,7.11,TK,2024-11-26
173,iskateley,67.6803,53.1512,1.3,93,100,12.94,RU,2024-11-26
174,dudinka,69.4058,86.1778,-5.48,93,100,7.8,RU,2024-11-26
175,belmonte,-15.8631,-38.8828,23.23,76,81,4.63,BR,2024-11-26
176,hermanus,-34.4187,19.2345,16.56,72,62,9.15,ZA,2024-11-26
177,mendaha,-1.0333,103.5833,27.45,81,100,2.2,ID,2024-11-26
178,shingu,33.7333,135.9833,18.42,68,100,7.77,JP,2024-11-26
179,bollnas,61.3482,16.3946,6.82,71,76,6.57,SE,2024-11-26
180,gorontalo,0.5412,123.0595,29.43,81,82,1.07,ID,2024-11-26
181,krasnokamensk,50.0979,118.0369,-11.73,82,100,5.34,RU,2024-11-26
182,kericho,-0.3677,35.2831,12.11,95,79,1.34,KE,2024-11-26
183,kavaratti,10.5669,72.642,27.79,68,100,4.47,IN,2024-11-26
184,sumbe,-11.2061,13.8437,24.88,90,90,3.55,AO,2024-11-26
185,bataipora,-22.2953,-53.2711,24.16,52,10,2.35,BR,2024-11-26
186,amaigbo,5.7892,7.8383,22.03,94,85,0.98,NG,2024-11-26
187,ponta delgada,37.7333,-25.6667,19.4,94,75,6.17,PT,2024-11-26
188,malakal,9.5334,31.6605,23.24,27,4,2.75,SS,2024-11-26
189,afaahiti,-17.75,-149.2833,25.62,83,89,7.32,PF,2024-11-26
190,ancud,-41.8697,-73.8203,9.74,88,10,4.1,CL,2024-11-26
191,la ronge,55.1001,-105.2842,-12.86,85,100,1.54,CA,2024-11-26
192,al ghayzah,16.2079,52.176,25.85,65,97,3.27,YE,2024-11-26
193,chuhar jamali,24.3895,67.9923,23.55,62,0,2.24,PK,2024-11-26
194,zaraysk,54.7653,38.8836,-2.67,75,17,2.77,RU,2024-11-26
195,huazhou,21.6333,110.5833,18.57,72,100,5.26,CN,2024-11-26
196,tangalle,6.024,80.7911,24.23,93,100,2.29,LK,2024-11-26
197,sisimiut,66.9395,-53.6735,-3.87,93,100,8.75,GL,2024-11-26
198,isafjordur,66.0755,-23.124,-0.7,85,45,5.04,IS,2024-11-26
199,tippi,7.2,35.45,17.84,97,99,1.16,ET,2024-11-26
200,elliot lake,46.3834,-82.6331,-2.05,97,100,2.34,CA,2024-11-26
201,olyokminsk,60.3736,120.4264,-24.64,97,80,1.06,RU,2024-11-26
202,rexburg,43.826,-111.7897,-0.01,59,0,2.06,US,2024-11-26
203,selfoss,63.9331,-20.9971,-6.64,77,49,2.04,IS,2024-11-26
204,longyearbyen,78.2186,15.6401,-11.09,79,75,8.23,SJ,2024-11-26
205,lobujya,27.95,86.8167,-12.03,29,0,1.77,NP,2024-11-26
206,tamandare,-8.7597,-35.1047,24.72,81,63,1.84,BR,2024-11-26
207,lae,-6.7221,146.9847,29.14,62,91,4.67,PG,2024-11-26
208,katsuura,35.1333,140.3,15.5,63,100,2.19,JP,2024-11-26
209,albert lea,43.648,-93.3683,-5.57,86,0,3.6,US,2024-11-26
210,playa blanca,28.8643,-13.8281,20.06,86,100,2.9,ES,2024-11-26
211,padra,22.2333,73.0833,16.05,77,96,2.06,IN,2024-11-26
212,nang rong,14.6377,102.7914,27.1,69,27,5.0,TH,2024-11-26
213,demopolis,32.5176,-87.8364,18.97,82,0,2.06,US,2024-11-26
214,bridlington,54.0831,-0.1919,5.64,83,3,2.24,GB,2024-11-26
215,kiselevsk,53.99,86.6621,-11.81,95,79,1.36,RU,2024-11-26
216,arraial do cabo,-22.9661,-42.0278,22.22,75,70,9.29,BR,2024-11-26
217,sal rei,16.1833,-22.9167,24.48,76,9,5.92,CV,2024-11-26
218,willowmore,-33.2926,23.4895,16.98,73,100,1.23,ZA,2024-11-26
219,gaspe,48.8334,-64.4819,5.12,87,100,3.09,CA,2024-11-26
220,tsirang,27.0219,90.1229,18.75,49,35,0.11,BT,2024-11-26
221,chonchi,-42.6128,-73.8092,9.51,96,63,1.34,CL,2024-11-26
222,laghouat,33.8,2.8651,12.07,62,100,3.72,DZ,2024-11-26
223,port alfred,-33.5906,26.891,18.99,89,100,1.79,ZA,2024-11-26
224,east ballina,-28.8667,153.5833,24.79,69,61,7.02,AU,2024-11-26
225,pacific grove,36.6177,-121.9166,16.06,91,75,6.26,US,2024-11-26
226,kasulu,-4.5767,30.1025,17.27,90,91,0.92,TZ,2024-11-26
227,launceston,-41.45,147.1667,27.8,47,15,1.54,AU,2024-11-26
228,barcelos,41.5388,-8.6151,11.46,82,100,2.03,PT,2024-11-26
229,arua,3.0201,30.9111,16.97,98,100,2.73,UG,2024-11-26
230,acajutla,13.5928,-89.8275,25.37,77,7,3.3,SV,2024-11-26
231,hadibu,12.65,54.0333,25.12,73,64,4.52,YE,2024-11-26
232,papatowai,-46.5619,169.4708,16.9,50,55,6.52,NZ,2024-11-26
233,enewetak,11.3474,162.3373,28.29,82,30,8.63,MH,2024-11-26
234,savalou,7.9281,1.9756,22.09,43,9,0.78,BJ,2024-11-26
235,la tuque,47.4334,-72.7824,1.14,86,100,1.03,CA,2024-11-26
236,luderitz,-26.6481,15.1594,15.72,75,81,7.2,NA,2024-11-26
237,champerico,14.3,-91.9167,25.73,77,5,2.95,GT,2024-11-26
238,poronaysk,49.2167,143.1167,-3.16,59,14,0.97,RU,2024-11-26
239,nookat,40.2671,72.6207,6.71,35,98,1.37,KG,2024-11-26
240,rio gallegos,-51.6226,-69.2181,10.03,57,0,5.66,AR,2024-11-26
241,padang,-0.9492,100.3543,26.03,86,100,2.3,ID,2024-11-26
242,bandarban,22.1965,92.2262,23.25,54,34,0.88,BD,2024-11-26
243,baruun-urt,46.6806,113.2792,-12.75,49,100,7.23,MN,2024-11-26
244,edirne,41.6772,26.556,1.21,68,5,0.41,TR,2024-11-26
245,kourou,5.1552,-52.6478,25.5,92,14,3.11,GF,2024-11-26
246,kaduy,59.2,37.15,-0.04,89,99,4.85,RU,2024-11-26
247,darwin,-12.4611,130.8418,24.99,94,75,5.14,AU,2024-11-26
248,nuku'alofa,-21.1333,-175.2,27.19,83,75,2.57,TO,2024-11-26
249,hithadhoo,-0.6,73.0833,28.24,76,100,6.9,MV,2024-11-26
250,cidade velha,14.9167,-23.6167,24.26,78,20,6.69,CV,2024-11-26
251,fortuna,40.5982,-124.1573,11.07,96,100,0.89,US,2024-11-26
252,elko,41.0002,-115.5012,1.79,90,100,1.34,US,2024-11-26
253,aykhal,66.0,111.5,-22.45,97,100,3.74,RU,2024-11-26
254,whangarei,-35.7317,174.3239,23.24,46,22,2.55,NZ,2024-11-26
255,ola,59.5833,151.2833,-12.32,66,48,4.45,RU,2024-11-26
256,yarmouth,41.7057,-70.2286,6.09,70,0,2.68,US,2024-11-26
257,sittwe,20.15,92.9,22.55,55,99,2.68,MM,2024-11-26
258,tchintabaraden,15.8969,5.7985,19.01,25,4,4.35,NE,2024-11-26
259,waslala,13.2333,-85.3833,22.5,86,13,1.34,NI,2024-11-26
260,upington,-28.4478,21.2561,16.21,48,74,3.09,ZA,2024-11-26
261,el granada,37.5027,-122.4694,13.25,95,100,5.66,US,2024-11-26
262,goure,13.9835,10.2704,17.75,28,13,3.8,NE,2024-11-26
263,avarua,-21.2078,-159.775,26.03,73,20,2.57,CK,2024-11-26
264,naliya,23.2667,68.8333,24.47,28,0,2.26,IN,2024-11-26
265,klyuchi,52.2667,79.1667,-11.52,95,39,2.14,RU,2024-11-26
266,tolanaro,-25.0319,46.9987,25.04,94,20,3.09,MG,2024-11-26
267,timmins,48.4669,-81.3331,-2.1,100,100,3.09,CA,2024-11-26
268,prince rupert,54.3161,-130.3201,1.83,64,100,5.14,CA,2024-11-26
269,rikaze,29.25,88.8833,0.9,46,0,1.5,CN,2024-11-26
270,malanje,-9.5402,16.341,17.92,99,99,1.31,AO,2024-11-26
271,namsos,64.4662,11.4957,0.95,93,100,3.6,NO,2024-11-26
272,totness,5.8833,-56.3167,26.65,86,10,4.44,SR,2024-11-26
273,noumea,-22.2763,166.4572,23.94,91,100,5.22,NC,2024-11-26
274,mariehamn,60.0973,19.9348,6.92,93,20,5.66,AX,2024-11-26
275,lipno,52.8444,19.1785,5.2,91,9,3.74,PL,2024-11-26
276,shendi,16.6915,33.4341,18.24,37,4,5.6,SD,2024-11-26
277,flin flon,54.7682,-101.865,-15.17,99,99,1.79,CA,2024-11-26
278,tsiombe,-25.3,45.4833,24.94,89,45,4.23,MG,2024-11-26
279,howrah,22.5892,88.3103,20.0,77,39,1.54,IN,2024-11-26
280,keflavik,64.0049,-22.5624,3.24,70,100,6.69,IS,2024-11-26
281,camayenne,9.535,-13.6878,27.05,94,20,0.0,GN,2024-11-26
282,bolnisi,41.4479,44.5384,7.59,88,100,0.39,GE,2024-11-26
283,charters towers,-20.1,146.2667,32.93,33,13,4.26,AU,2024-11-26
284,yuzhno-kurilsk,44.0306,145.8556,3.78,57,6,4.88,RU,2024-11-26
285,winnemucca,40.973,-117.7357,4.03,75,100,4.12,US,2024-11-26
286,bairnsdale,-37.8333,147.6167,26.14,74,99,0.45,AU,2024-11-26
287,newman,37.3138,-121.0208,13.36,85,100,3.13,US,2024-11-26
288,minot air force base,48.4209,-101.3391,-14.9,72,0,5.66,US,2024-11-26
289,cambria,35.5641,-121.0808,12.25,96,100,1.79,US,2024-11-26
290,kidal,18.4411,1.4078,20.7,22,71,5.74,ML,2024-11-26
291,revda,56.801,59.9303,-5.9,90,41,1.22,RU,2024-11-26
292,north platte,41.1239,-100.7654,2.43,60,0,4.02,US,2024-11-26
293,akureyri,65.6835,-18.0878,-3.04,68,0,7.72,IS,2024-11-26
294,tobelo,1.7284,128.0095,28.95,74,53,1.25,ID,2024-11-26
295,kone,-21.0595,164.8658,31.31,56,100,1.9,NC,2024-11-26
296,el obeid,13.1842,30.2167,16.76,39,0,4.87,SD,2024-11-26
297,eastham,41.8301,-69.9739,6.65,75,0,1.54,US,2024-11-26
298,gebeit,21.0667,36.3167,18.39,80,91,1.93,SD,2024-11-26
299,gorgan,36.8387,54.4348,10.98,87,0,0.0,IR,2024-11-26
300,kanniyakumari,8.0833,77.5667,25.29,77,100,3.48,IN,2024-11-26
301,qulsary,46.9531,54.0198,0.08,78,5,4.39,KZ,2024-11-26
302,kaiapoi,-43.3783,172.6401,17.27,74,100,8.75,NZ,2024-11-26
303,musan-up,42.2261,129.2078,4.65,98,100,0.79,KP,2024-11-26
304,bom jesus,-9.0744,-44.3586,21.83,85,100,0.35,BR,2024-11-26
305,wewak,-3.5534,143.6268,29.54,70,97,0.89,PG,2024-11-26
306,la passe,45.5549,-0.8967,12.04,85,7,5.21,FR,2024-11-26
307,kismayo,-0.3582,42.5454,26.83,80,2,2.98,SO,2024-11-26
308,ghat,24.9647,10.1728,13.18,55,0,1.45,LY,2024-11-26
309,bowen,-20.0167,148.2333,26.86,71,23,7.46,AU,2024-11-26
310,krasnovishersk,60.4078,57.082,-3.95,95,100,3.38,RU,2024-11-26
311,el kef,36.1742,8.7049,10.55,70,0,3.53,TN,2024-11-26
312,viedma,-40.8135,-62.9967,15.72,58,60,9.88,AR,2024-11-26
313,nagqu,31.5,92.0,-5.56,19,99,0.91,CN,2024-11-26
314,yoichi,43.2039,140.7703,7.66,45,56,1.19,JP,2024-11-26
315,gao,16.6362,1.637,21.25,19,79,4.82,ML,2024-11-26
316,togur,58.3631,82.8265,-9.64,93,30,2.31,RU,2024-11-26
317,manismata,-2.4667,111.0333,32.05,59,100,0.45,ID,2024-11-26
318,al jawf,29.5,38.75,9.01,55,0,3.52,SA,2024-11-26
319,crane,31.3974,-102.3501,9.82,46,95,5.66,US,2024-11-26
320,weno,7.4515,151.8468,29.97,84,75,3.6,FM,2024-11-26
321,buckeye,33.3703,-112.5838,19.43,34,0,3.09,US,2024-11-26
322,uturoa,-16.7333,-151.4333,27.0,78,78,5.35,PF,2024-11-26
323,boende,-0.2167,20.8667,21.29,98,100,1.23,CD,2024-11-26
324,kununurra,-15.7667,128.7333,32.99,58,40,4.12,AU,2024-11-26
325,happy valley-goose bay,53.3168,-60.3315,2.17,87,100,3.09,CA,2024-11-26
326,dunda,-8.1167,34.25,20.72,77,95,1.23,TZ,2024-11-26
327,cidreira,-30.1811,-50.2056,20.76,93,95,4.2,BR,2024-11-26
328,changzhi,35.2089,111.7386,4.29,20,1,6.88,CN,2024-11-26
329,nadym,65.5333,72.5167,-4.92,81,100,11.49,RU,2024-11-26
330,yigo village,13.5361,144.8886,30.18,78,75,10.8,GU,2024-11-26
331,paarl,-33.7338,18.9752,13.67,79,100,2.71,ZA,2024-11-26
332,jilib,0.4883,42.7854,24.28,90,33,1.6,SO,2024-11-26
333,paide,58.8856,25.5572,7.0,79,100,5.71,EE,2024-11-26
334,kristiansund,63.1115,7.732,7.36,61,75,1.54,NO,2024-11-26
335,quiberon,47.4841,-3.1196,12.31,78,28,6.91,FR,2024-11-26
336,kailua-kona,19.6406,-155.9956,27.98,69,0,6.17,US,2024-11-26
337,red deer,52.2668,-113.802,-17.73,85,100,0.0,CA,2024-11-26
338,puerto deseado,-47.7503,-65.8938,10.11,87,18,6.28,AR,2024-11-26
339,ketchikan,55.3422,-131.6461,-0.01,74,100,2.57,US,2024-11-26
340,shimoda,34.6667,138.95,14.89,72,100,3.09,JP,2024-11-26
341,angermunde,53.015,13.9992,9.61,91,100,3.7,DE,2024-11-26
342,stevens point,44.5236,-89.5746,1.03,84,100,4.63,US,2024-11-26
343,archidona,37.0965,-4.3887,10.05,94,67,1.75,ES,2024-11-26
344,port hedland,-20.3167,118.5667,33.03,55,95,7.2,AU,2024-11-26
345,cadale,2.7603,46.3222,26.97,80,37,4.38,SO,2024-11-26
346,khandyga,62.6667,135.6,-26.85,94,73,0.62,RU,2024-11-26
347,szekszard,46.3501,18.709,4.06,81,6,3.39,HU,2024-11-26
348,constantia,44.1833,28.65,-3.62,56,73,2.67,RO,2024-11-26
349,san martin de valdeiglesias,40.3623,-4.3439,6.14,79,98,2.25,ES,2024-11-26
350,durango,24.8333,-104.8333,15.95,37,6,0.73,MX,2024-11-26
351,mgandu,-5.95,34.1333,18.42,80,99,1.26,TZ,2024-11-26
352,igarka,67.4667,86.5833,-8.07,92,100,5.83,RU,2024-11-26
353,markala,13.7021,-6.0659,22.83,18,1,3.58,ML,2024-11-26
354,polyarnyy,69.1989,33.4478,-4.63,86,99,3.1,RU,2024-11-26
355,el calafate,-50.3408,-72.2768,11.66,64,73,1.13,AR,2024-11-26
356,oriximina,-1.7656,-55.8661,29.51,56,92,1.5,BR,2024-11-26
357,bengkulu,-3.8004,102.2655,26.09,84,100,2.25,ID,2024-11-26
358,virar,19.4667,72.8,23.6,40,61,2.62,IN,2024-11-26
359,kroya,-7.6331,109.2461,30.01,67,71,1.74,ID,2024-11-26
360,syktyvkar,61.6764,50.8099,-1.15,69,75,8.0,RU,2024-11-26
361,ulaangom,49.9811,92.0667,-9.35,71,56,1.19,MN,2024-11-26
362,sao tome,0.3365,6.7273,25.8,83,100,1.7,ST,2024-11-26
363,ulsteinvik,62.3432,5.8487,7.07,82,98,2.52,NO,2024-11-26
364,abra pampa,-22.7205,-65.697,12.79,66,100,3.57,AR,2024-11-26
365,tazacorte,28.629,-17.9293,19.54,79,0,3.58,ES,2024-11-26
366,maych'ew,12.7875,39.5422,9.81,50,0,0.77,ET,2024-11-26
367,karamay,45.6004,84.8661,-1.85,54,3,1.3,CN,2024-11-26
368,bubaque,11.2833,-15.8333,28.5,64,0,3.36,GW,2024-11-26
369,kembe,4.6228,21.8865,20.83,67,37,0.78,CF,2024-11-26
370,musoma,-1.5,33.8,18.78,90,91,2.57,TZ,2024-11-26
371,codrington,-38.2667,141.9667,25.65,52,100,4.87,AU,2024-11-26
372,valparaiso,-33.0393,-71.6273,17.8,55,0,4.63,CL,2024-11-26
373,astaneh-ye ashrafiyeh,37.2596,49.9444,12.67,93,26,0.95,IR,2024-11-26
374,rongelap,11.1635,166.8941,28.4,80,43,8.52,MH,2024-11-26
375,fortaleza,-3.7227,-38.5247,27.34,78,40,3.6,BR,2024-11-26
376,puerto baquerizo moreno,-0.9,-89.6,21.78,71,75,4.56,EC,2024-11-26
377,sao paulo de olivenca,-3.3783,-68.8725,24.7,93,92,0.23,BR,2024-11-26
378,kikwit,-5.041,18.8162,20.89,98,100,0.29,CD,2024-11-26
379,kushk,33.2957,61.9522,12.18,38,68,1.96,AF,2024-11-26
380,den burg,53.0542,4.7972,9.99,71,20,8.75,NL,2024-11-26
381,papao,-17.75,-149.55,28.82,77,77,6.58,PF,2024-11-26
382,victorica,-36.2151,-65.4359,21.98,78,0,3.32,AR,2024-11-26
383,el bauga,18.262,33.9081,14.89,40,3,6.06,SD,2024-11-26
384,ilebo,-4.3167,20.5833,21.41,99,100,0.2,CD,2024-11-26
385,kencong,-8.2833,113.3667,28.79,72,100,0.74,ID,2024-11-26
386,yiyang,28.5892,112.3283,12.35,35,62,3.01,CN,2024-11-26
387,toliara,-23.35,43.6667,26.36,70,35,2.0,MG,2024-11-26
388,al kharj,24.155,47.3346,19.32,46,15,2.2,SA,2024-11-26
389,kandahar,31.0,65.75,11.26,35,37,0.19,AF,2024-11-26
390,jabat,7.75,168.9751,27.52,81,100,6.75,MH,2024-11-26
391,cabedelo,-6.9811,-34.8339,26.37,73,85,3.92,BR,2024-11-26
392,llanes,43.4198,-4.7549,12.0,64,69,2.55,ES,2024-11-26
393,tura,25.5198,90.2201,21.8,62,32,0.62,IN,2024-11-26
394,sorong,-0.8833,131.25,28.67,76,70,1.9,ID,2024-11-26
395,bridgewater,44.3835,-64.5155,5.35,86,90,6.17,CA,2024-11-26
396,goz beida,13.95,20.55,17.39,27,99,2.27,TD,2024-11-26
397,sirte,31.2089,16.5887,17.79,60,84,2.44,LY,2024-11-26
398,evinayong,1.4368,10.5512,19.92,99,100,1.23,GQ,2024-11-26
399,hohhot,40.8106,111.6522,-7.84,49,20,7.0,CN,2024-11-26
400,coquimbo,-29.9533,-71.3436,14.99,76,0,0.0,CL,2024-11-26
401,kingston,17.997,-76.7936,28.53,70,75,5.14,JM,2024-11-26
402,port douglas,-16.4833,145.4667,27.95,61,1,3.42,AU,2024-11-26
403,labrador city,52.9463,-66.9114,-1.57,95,100,10.28,CA,2024-11-26
404,swakopmund,-22.6833,14.5333,13.32,85,43,4.17,NA,2024-11-26
405,breyten,-26.3018,29.987,13.34,62,25,1.85,ZA,2024-11-26
406,jiuquan,39.7432,98.5174,-1.9,28,15,2.32,CN,2024-11-26
407,westport,41.1415,-73.3579,7.33,61,20,0.0,US,2024-11-26
408,naze,28.3667,129.4833,20.51,86,93,5.73,JP,2024-11-26
409,leninskoye,41.7589,69.3864,8.62,37,70,1.07,KZ,2024-11-26
410,lycksele,64.5954,18.6735,1.93,100,100,3.6,SE,2024-11-26
411,fabens,31.5023,-106.1586,17.17,24,97,2.17,US,2024-11-26
412,geraldton,-28.7667,114.6,24.23,22,0,7.35,AU,2024-11-26
413,liberal,37.0431,-100.921,1.08,55,0,1.54,US,2024-11-26
414,kolokani,13.5728,-8.0339,21.93,19,6,3.17,ML,2024-11-26
415,tual,-5.6667,132.75,29.05,70,25,0.96,ID,2024-11-26
416,taltal,-25.4,-70.4833,17.11,85,49,2.05,CL,2024-11-26
417,dwarka,22.2394,68.9678,25.11,47,0,3.82,IN,2024-11-26
418,moab,38.5733,-109.5498,8.05,47,100,0.69,US,2024-11-26
419,newport,51.5877,-2.9984,7.06,92,100,3.47,GB,2024-11-26
420,salalah,17.0151,54.0924,23.72,77,0,2.53,OM,2024-11-26
421,bida,9.0833,6.0167,20.09,28,95,2.13,NG,2024-11-26
422,mandalgovi,45.7625,106.2708,-7.61,41,100,12.94,MN,2024-11-26
423,aripuana,-9.1667,-60.6333,23.15,95,96,1.07,BR,2024-11-26
424,zyryanovsk,49.7386,84.2719,-17.88,97,20,0.81,KZ,2024-11-26
425,nova xavantina,-14.6667,-52.35,22.24,98,5,1.26,BR,2024-11-26
426,kokoda,-8.8785,147.7407,29.27,76,99,2.51,PG,2024-11-26
427,rechytsa,52.3617,30.3916,-1.49,84,100,4.45,BY,2024-11-26
428,bikenibeu village,1.3673,173.1241,31.98,62,20,7.72,KI,2024-11-26
429,murraysville,34.2957,-77.8475,13.98,88,0,2.57,US,2024-11-26
430,utrik,11.2278,169.8474,28.36,80,42,9.02,MH,2024-11-26
431,yeed,4.55,43.0333,25.6,71,38,4.82,SO,2024-11-26
432,bhimunipatnam,17.8833,83.4333,25.73,67,95,4.53,IN,2024-11-26
433,sur,22.5667,59.5289,23.89,71,0,2.5,OM,2024-11-26
434,zapala,-38.8992,-70.0544,9.32,59,0,7.61,AR,2024-11-26
435,kzyltu,53.6364,72.3414,-10.71,90,15,3.23,KZ,2024-11-26
436,bakanas,44.8081,76.2772,1.3,60,0,1.8,KZ,2024-11-26
437,mao,39.8885,4.2658,17.31,88,0,2.57,ES,2024-11-26
438,mount isa,-20.7333,139.5,23.87,88,100,10.8,AU,2024-11-26
439,kujang-up,39.8672,126.0303,3.6,65,88,6.58,KP,2024-11-26
440,suva,-18.1416,178.4415,28.71,74,75,4.63,FJ,2024-11-26
441,mansa,29.9833,75.3833,18.12,34,1,0.75,IN,2024-11-26
442,tanjung pandan,-2.75,107.65,30.2,68,100,0.77,ID,2024-11-26
443,ciudad bolivar,8.1222,-63.5497,27.69,71,14,5.09,VE,2024-11-26
444,kimbe,-5.5502,150.1429,31.52,65,64,2.18,PG,2024-11-26
445,dapa,9.7594,126.0531,28.04,78,83,4.73,PH,2024-11-26
446,dunedin,-45.8742,170.5036,14.13,79,20,5.89,NZ,2024-11-26
447,vytegra,61.0064,36.4481,3.44,85,100,7.11,RU,2024-11-26
448,paslek,54.0616,19.6593,7.26,77,100,5.65,PL,2024-11-26
449,kudahuvadhoo,2.6708,72.8944,27.57,76,100,3.9,MV,2024-11-26
450,sao jose da coroa grande,-8.8978,-35.1478,25.02,80,66,2.14,BR,2024-11-26
451,berezovo,63.9381,65.0419,-2.44,72,100,8.28,RU,2024-11-26
452,burutu,5.3509,5.5076,26.01,80,37,2.02,NG,2024-11-26
453,lethem,3.3803,-59.7968,29.48,55,100,4.59,GY,2024-11-26
454,lorengau,-2.0226,147.2712,28.93,78,88,4.0,PG,2024-11-26
455,maddagiri,13.6606,77.2092,19.45,75,98,2.35,IN,2024-11-26
456,dazhong,33.1997,120.4578,6.59,33,0,8.17,CN,2024-11-26
457,lundazi,-12.2929,33.1782,19.41,75,74,2.08,ZM,2024-11-26
458,badger,64.8,-147.5333,-5.86,88,100,1.54,US,2024-11-26
459,cabo san lucas,22.8909,-109.9124,24.31,51,94,2.27,MX,2024-11-26
460,touros,-5.1989,-35.4608,25.21,73,74,4.17,BR,2024-11-26
461,mili,6.0815,171.735,28.09,76,81,5.62,MH,2024-11-26
462,semnan,35.5729,53.3971,9.81,51,6,1.12,IR,2024-11-26
463,liuli,-11.0833,34.6333,25.81,66,65,1.81,TZ,2024-11-26
464,zambezi,-13.5432,23.1047,17.46,98,100,1.68,ZM,2024-11-26
465,ar rutbah,33.0381,40.2848,9.11,54,81,3.47,IQ,2024-11-26
466,la pineda,41.0762,1.1852,15.6,56,47,4.89,ES,2024-11-26
467,guider,9.9342,13.9486,20.55,27,17,2.94,CM,2024-11-26
468,luau,-10.7073,22.2247,18.04,98,100,1.33,AO,2024-11-26
469,kapa'a,22.0752,-159.319,26.18,73,0,7.72,US,2024-11-26
470,winslow,35.0242,-110.6974,7.1,42,0,3.6,US,2024-11-26
471,wuhai,39.6647,106.8122,-3.42,17,33,10.84,CN,2024-11-26
472,leava,-14.3,-178.1667,27.9,76,48,3.47,WF,2024-11-26
473,nagod,24.5667,80.6,19.84,42,35,1.35,IN,2024-11-26
474,fort st. john,56.2499,-120.8529,-21.06,84,20,4.12,CA,2024-11-26
475,svetlyy,54.675,20.1347,8.28,74,84,6.68,RU,2024-11-26
476,urengoy,65.9667,78.3667,-7.08,89,100,8.1,RU,2024-11-26
477,berezovyy,51.6667,135.7,-6.18,77,100,1.19,RU,2024-11-26
478,caleta olivia,-46.4393,-67.5281,12.4,91,99,4.15,AR,2024-11-26
479,okha,53.5739,142.9478,-3.79,83,24,2.34,RU,2024-11-26
480,dadukou,26.5479,101.7054,15.87,63,4,0.75,CN,2024-11-26
481,shubarshi,48.5872,57.1869,-1.12,75,0,3.64,KZ,2024-11-26
482,holualoa,19.6228,-155.9522,25.91,71,0,6.17,US,2024-11-26
483,sterling,39.0062,-77.4286,12.53,68,75,2.57,US,2024-11-26
484,ozurgeti,41.9231,42.0059,5.78,93,100,0.96,GE,2024-11-26
485,margate,51.3813,1.3862,8.72,77,100,5.51,GB,2024-11-26
486,bardai,11.65,7.2333,15.94,31,52,4.03,NG,2024-11-26
487,yermolayevo,52.7167,55.8,-7.2,87,5,1.88,RU,2024-11-26
488,george town,5.4112,100.3354,29.97,77,40,2.24,MY,2024-11-26
489,yinchuan,38.4681,106.2731,-1.33,12,3,2.58,CN,2024-11-26
490,remire-montjoly,4.9167,-52.2667,28.02,83,100,3.09,GF,2024-11-26
491,san antonio de pale,-1.4014,5.6325,25.87,83,96,4.84,GQ,2024-11-26
492,saint croix,17.7397,-64.7388,26.25,84,20,4.63,VI,2024-11-26
493,black river,18.0264,-77.8487,25.22,86,100,1.94,JM,2024-11-26
494,farah,32.5,62.5,14.0,31,100,1.93,AF,2024-11-26
495,pacocha,-17.5833,-71.3333,19.2,92,99,2.46,PE,2024-11-26
496,bayanhongor,46.7167,100.1167,-19.25,84,3,0.57,MN,2024-11-26
497,sarmiento,-45.5882,-69.07,15.06,47,100,0.56,AR,2024-11-26
498,byron bay,-28.65,153.6167,25.17,66,80,5.94,AU,2024-11-26
499,aliveri,38.4167,24.0333,9.12,67,1,2.99,GR,2024-11-26
500,quellon,-43.1167,-73.6167,8.53,92,44,2.97,CL,2024-11-26
501,nafada,11.0956,11.3327,19.17,33,25,2.35,NG,2024-11-26
502,nanpiao,41.0982,120.7479,-2.92,46,0,7.33,CN,2024-11-26
503,pathein,16.7833,94.7333,24.81,65,100,4.63,MM,2024-11-26
504,pont rouge,48.8833,-72.0825,2.04,82,99,2.47,CA,2024-11-26
505,hammerfest,70.6634,23.6821,0.25,69,40,5.14,NO,2024-11-26
506,saint-pierre,-21.3393,55.4781,24.82,73,0,2.06,RE,2024-11-26
507,kalabo,-14.97,22.6814,19.49,92,99,2.51,ZM,2024-11-26
508,belyy yar,53.6039,91.3903,-9.06,92,100,1.0,RU,2024-11-26
509,nogliki,51.8333,143.1667,-4.04,71,20,1.42,RU,2024-11-26
510,khamis mushait,18.3064,42.7292,10.58,81,0,0.0,SA,2024-11-26
511,tefe,-3.3542,-64.7114,24.11,95,92,0.8,BR,2024-11-26
512,chinhoyi,-17.3667,30.2,20.62,71,100,2.34,ZW,2024-11-26
513,praszka,51.0537,18.4532,6.74,77,0,7.71,PL,2024-11-26
514,horezu,45.15,24.0167,1.57,77,100,1.07,RO,2024-11-26
515,gaiman,-43.2897,-65.4929,13.11,62,86,12.36,AR,2024-11-26
516,lerwick,60.1545,-1.1494,5.64,93,100,13.58,GB,2024-11-26
517,tabou,4.423,-7.3528,25.0,86,8,1.18,CI,2024-11-26
518,santa ana de yacuma,-13.75,-65.4333,26.13,79,34,2.81,BO,2024-11-26
519,douglas,41.3,-96.167,-2.07,67,0,0.0,US,2024-11-26
520,alaghsas,17.0187,8.0168,19.24,32,16,4.61,NE,2024-11-26
521,san pedro pochutla,15.7333,-96.4667,23.73,94,0,1.51,MX,2024-11-26
522,jiexiu,37.0244,111.9125,0.03,20,44,7.07,CN,2024-11-26
523,shira,54.4911,89.9531,-8.05,80,96,1.62,RU,2024-11-26
524,broome,42.2506,-75.833,5.95,87,100,3.13,US,2024-11-26
525,muravlenko,63.7898,74.523,-7.64,89,100,8.0,RU,2024-11-26
526,huarmey,-10.0681,-78.1522,19.5,85,93,3.26,PE,2024-11-26
527,palmer,42.1584,-72.3287,2.17,75,75,0.0,US,2024-11-26
528,twon-brass,4.3151,6.2418,27.13,79,58,5.13,NG,2024-11-26
529,trujillo,-8.116,-79.03,16.98,94,100,4.12,PE,2024-11-26
530,city of balikpapan,-1.242,116.8942,30.97,62,96,3.09,ID,2024-11-26
531,juneau,58.3019,-134.4197,-0.88,95,100,6.69,US,2024-11-26
532,ramapuram,13.1167,79.2,22.23,80,100,2.84,IN,2024-11-26
533,kulhudhuffushi,6.6221,73.07,28.07,70,100,4.44,MV,2024-11-26
534,olinda,-8.0089,-34.8553,26.85,78,40,3.09,BR,2024-11-26
535,anderson,34.5334,-82.6499,16.68,81,100,3.6,US,2024-11-26
536,chimbote,-9.0853,-78.5783,18.87,86,84,3.37,PE,2024-11-26
537,la paz,-16.5,-68.15,12.54,64,71,0.89,BO,2024-11-26
538,kiunga,-6.1219,141.2906,34.3,51,91,1.49,PG,2024-11-26
539,mukalla,14.5425,49.1242,23.21,76,0,2.33,YE,2024-11-26
540,smithers,54.7804,-127.1743,-9.82,73,75,1.03,CA,2024-11-26
541,nouadhibou,20.931,-17.0347,19.99,83,0,5.14,MR,2024-11-26
542,yukhnov,54.7444,35.2297,-1.43,84,100,3.33,RU,2024-11-26
543,monterey,36.2505,-121.2516,12.17,94,100,1.86,US,2024-11-26
544,barentu,15.1139,37.5928,21.67,64,3,1.39,ER,2024-11-26
545,chadan,51.2833,91.5833,-14.61,91,75,0.52,RU,2024-11-26
546,warrnambool,-38.3833,142.4833,22.66,68,100,6.01,AU,2024-11-26
547,maun,-19.9833,23.4167,20.03,74,14,2.08,BW,2024-11-26
548,sungai raya,0.7,108.9,30.84,62,100,0.95,ID,2024-11-26
549,sakaiminato,35.55,133.2333,15.99,77,100,5.14,JP,2024-11-26
550,ha'il,27.5219,41.6907,10.01,87,0,0.0,SA,2024-11-26
551,sabang,5.8933,95.3214,25.91,87,100,1.85,ID,2024-11-26
552,augusto correa,-1.0217,-46.635,26.14,74,24,2.42,BR,2024-11-26
553,mabaruma,8.2,-59.7833,22.59,98,98,0.57,GY,2024-11-26
554,vallenar,-28.5708,-70.7581,20.88,43,22,1.56,CL,2024-11-26
555,fortuna foothills,32.6578,-114.4119,19.71,37,0,1.54,US,2024-11-26
556,ammi moussa,35.8678,1.1114,16.6,46,20,1.05,DZ,2024-11-26
557,malango,-2.9627,119.9001,26.23,77,88,1.37,ID,2024-11-26
558,dodge city,37.7528,-100.0171,0.14,67,27,2.77,US,2024-11-26
559,ak'ordat,15.5486,37.8867,23.75,79,2,2.85,ER,2024-11-26
560,tavda,58.0425,65.2726,-2.7,79,21,3.67,RU,2024-11-26
561,novyy turtkul',41.55,61.0167,5.89,48,0,3.51,UZ,2024-11-26
562,turkmenbasy,40.0222,52.9552,10.43,62,0,0.0,TM,2024-11-26
563,tulun,54.5611,100.5792,-2.79,69,33,5.96,RU,2024-11-26
564,talara,-4.5772,-81.2719,19.63,87,17,5.48,PE,2024-11-26
565,vilyuchinsk,52.9306,158.4028,3.15,82,100,4.45,RU,2024-11-26
566,pueblo,38.2545,-104.6091,1.89,74,0,2.57,US,2024-11-26
567,mercedes,-34.6515,-59.4307,21.55,88,0,5.88,AR,2024-11-26
568,ardakan,32.31,54.0175,13.47,48,4,0.84,IR,2024-11-26
569,trevelin,-43.0858,-71.4639,5.99,91,39,2.25,AR,2024-11-26
570,jalor,25.35,72.6167,22.58,26,0,0.54,IN,2024-11-26
571,moyuta,14.0386,-90.0808,15.83,87,7,3.08,GT,2024-11-26
572,brokopondo,4.75,-55.1667,25.68,85,53,4.55,SR,2024-11-26
573,nynashamn,58.9034,17.9479,7.85,86,100,7.26,SE,2024-11-26
574,balqash,46.8481,74.995,-2.67,63,0,7.0,KZ,2024-11-26
575,akjoujt,19.6969,-14.4164,24.61,13,4,4.39,MR,2024-11-26
576,mount pearl,47.5166,-52.7813,4.69,98,100,3.6,CA,2024-11-26
577,lingyuan,41.24,119.4011,-5.86,50,25,4.95,CN,2024-11-26
578,dok kham tai,19.1624,99.9934,26.43,68,71,1.4,TH,2024-11-26
579,port augusta,-32.5,137.7667,33.44,23,100,5.98,AU,2024-11-26
580,asau,46.4333,26.4,-0.2,93,13,1.61,RO,2024-11-26
581,takoradi,4.8845,-1.7554,25.0,87,1,1.93,GH,2024-11-26
582,karratha,-20.7377,116.8463,33.17,36,93,5.5,AU,2024-11-26
583,nuuk,64.1835,-51.7216,-2.29,92,100,7.6,GL,2024-11-26
584,sol'-iletsk,51.1631,54.9918,-3.55,79,11,3.8,RU,2024-11-26
585,yuci,37.6803,112.7319,-1.14,31,0,4.0,CN,2024-11-26
